,City,Cloudiness,Country,Date,Humidity,Lat,Lng,Max Temp,Wind Speed
0,martapura,75,ID,1586623456,100,-3.42,114.85,25.0,1.5
1,okhotsk,97,RU,1586623456,96,59.38,143.3,-4.03,0.76
2,yovon,40,TJ,1586623456,93,38.31,69.04,14.0,2.0
3,cape town,40,ZA,1586622832,88,-33.93,18.42,19.44,8.2
4,hornepayne,95,CA,1586623457,74,49.21,-84.77,3.03,4.53
5,beringovskiy,94,RU,1586623068,93,63.05,179.32,-13.82,4.92
6,albany,75,US,1586623160,36,42.6,-73.97,8.89,9.8
7,langsa,58,ID,1586623457,87,4.47,97.97,25.15,1.38
8,ribeira grande,20,PT,1586623055,77,38.52,-28.7,18.0,2.1
9,rikitea,94,PF,1586622809,74,-23.12,-134.97,24.85,1.71
10,bonavista,91,CA,1586623457,91,48.65,-53.11,1.14,8.76
11,polonnaruwa,4,LK,1586623457,83,7.93,81.0,25.09,0.93
12,solnechnyy,58,RU,1586623212,80,50.72,136.63,-0.14,1.68
13,faanui,100,PF,1586623415,73,-16.48,-151.75,28.3,4.2
14,bluff,100,NZ,1586623455,79,-46.6,168.33,11.67,1.34
15,atbasar,96,KZ,1586623458,72,51.8,68.33,5.08,5.2
16,mataura,100,NZ,1586623458,79,-46.19,168.86,11.67,1.34
17,new norfolk,40,AU,1586623458,57,-42.78,147.06,11.0,7.2
18,laguna,90,US,1586623458,82,38.42,-121.42,14.44,2.1
19,bahia blanca,87,AR,1586623209,37,-38.72,-62.27,24.31,6.85
20,puerto ayora,75,EC,1586623453,74,-0.74,-90.35,29.0,4.1
21,jumla,7,NP,1586623458,23,29.27,82.18,8.09,2.13
22,upernavik,100,GL,1586623158,90,72.79,-56.15,-5.71,0.63
23,hithadhoo,49,MV,1586623019,65,-0.6,73.08,29.48,2.99
24,kavieng,97,PG,1586623185,74,-2.57,150.8,28.29,2.09
25,clyde river,75,CA,1586623459,84,70.47,-68.59,-13.0,6.2
26,hilo,1,US,1586623165,82,19.73,-155.09,20.0,2.1
27,cherskiy,100,RU,1586623127,96,68.75,161.3,-11.27,5.16
28,ingham,1,US,1586623459,31,42.6,-84.38,12.22,2.6
29,hirara,94,JP,1586623459,84,24.8,125.28,21.31,11.04
30,mar del plata,75,AR,1586622973,60,-38.0,-57.56,22.22,6.2
31,dali,19,CN,1586623459,23,25.7,100.18,10.49,1.24
32,georgetown,20,MY,1586623163,79,5.41,100.34,30.0,1.0
33,avarua,65,CK,1586622907,100,-21.21,-159.78,26.0,1.0
34,karpathos,0,GR,1586623459,77,35.51,27.21,17.0,8.2
35,obihiro,58,JP,1586623460,93,42.92,143.2,-2.26,0.18
36,busselton,100,AU,1586623163,50,-33.65,115.33,20.56,2.74
37,nantucket,1,US,1586622976,42,41.28,-70.1,11.67,10.3
38,ushuaia,40,AR,1586623162,49,-54.8,-68.3,9.0,11.3
39,qaanaaq,77,GL,1586623162,78,77.48,-69.36,-10.07,1.49
40,norman wells,75,CA,1586623163,85,65.28,-126.83,-5.0,3.1
41,awjilah,41,LY,1586623460,26,29.11,21.29,19.39,3.39
42,qandala,2,SO,1586623460,60,11.47,49.87,29.92,5.81
43,saint-pierre,43,RE,1586622912,69,-21.34,55.48,26.0,6.2
44,pemangkat,60,ID,1586623188,87,1.17,108.97,25.32,2.82
45,bredasdorp,100,ZA,1586623168,68,-34.53,20.04,21.11,0.5
46,klaksvik,100,FO,1586623186,93,62.23,-6.59,8.0,4.6
47,garissa,100,KE,1586623194,58,-0.45,39.64,29.93,6.93
48,almaznyy,20,RU,1586623461,34,48.04,40.05,10.0,3.0
49,kantunilkin,40,MX,1586623461,70,21.09,-87.45,30.0,8.2
50,derzhavinsk,95,KZ,1586623461,56,51.1,66.32,6.52,4.85
51,airai,49,TL,1586623461,72,-8.93,125.41,16.09,0.66
52,kavaratti,1,IN,1586623199,68,10.57,72.64,29.45,1.8
53,seydi,95,TM,1586623461,58,39.48,62.91,20.81,2.21
54,aboso,98,GH,1586623174,83,5.36,-1.95,26.85,1.91
55,saskylakh,87,RU,1586623461,90,71.92,114.08,-15.13,7.92
56,christchurch,89,NZ,1586623462,100,-43.53,172.63,15.0,1.0
57,punta arenas,40,CL,1586623051,66,-53.15,-70.92,9.0,9.3
58,xichang,55,CN,1586623462,42,27.9,102.26,12.09,1.83
59,mao,20,ES,1586623263,48,39.89,4.27,19.0,4.1
60,kodiak,90,US,1586623170,77,57.79,-152.41,4.0,7.2
61,aksu,81,CN,1586623462,19,41.12,80.26,16.07,0.96
62,aljezur,10,PT,1586623462,71,37.32,-8.8,18.89,6.29
63,port alfred,100,ZA,1586623159,94,-33.59,26.89,19.44,3.99
64,provideniya,99,RU,1586623179,97,64.38,-173.3,-2.7,1.47
65,zdvinsk,50,RU,1586623462,91,54.7,78.66,0.03,3.62
66,tuktoyaktuk,75,CA,1586623073,83,69.45,-133.04,-22.0,3.1
67,auki,98,SB,1586623463,76,-8.77,160.7,27.63,2.58
68,roebourne,0,AU,1586623463,50,-20.78,117.13,27.81,4.42
69,batemans bay,9,AU,1586623463,73,-35.72,150.18,9.44,4.2
70,fairbanks,1,US,1586623183,92,64.84,-147.72,-3.89,1.65
71,hermanus,100,ZA,1586623158,79,-34.42,19.23,21.11,2.24
72,sheltozero,17,RU,1586623188,89,61.37,35.37,-0.1,1.63
73,upington,20,ZA,1586623463,16,-28.45,21.26,31.0,5.1
74,broome,75,US,1586623463,44,42.25,-75.83,6.67,6.7
75,itanagar,4,IN,1586623463,38,27.1,93.62,22.12,1.31
76,martil,75,MA,1586623463,93,35.62,-5.28,20.0,7.2
77,nuwara eliya,47,LK,1586623464,74,6.97,80.78,13.63,0.35
78,eureka,90,US,1586623202,81,40.8,-124.16,11.67,4.68
79,saint-philippe,57,RE,1586622976,69,-21.36,55.77,26.0,6.2
80,necochea,6,AR,1586623464,54,-38.55,-58.74,24.44,7.6
81,longyearbyen,20,SJ,1586623179,64,78.22,15.64,-18.0,3.1
82,guerrero negro,67,MX,1586623464,50,27.98,-114.06,18.84,5.56
83,barrow,1,US,1586622903,91,71.29,-156.79,-28.0,4.1
84,padang,100,ID,1586623190,73,-0.95,100.35,26.56,1.89
85,khorramshahr,53,IR,1586623464,26,30.44,48.17,28.0,4.1
86,jamestown,40,US,1586623463,55,42.1,-79.24,6.11,4.1
87,cidreira,18,BR,1586622961,56,-30.18,-50.21,21.9,3.38
88,san cristobal,40,VE,1586623311,46,7.77,-72.22,33.0,7.2
89,guane,0,CU,1586623465,43,22.2,-84.09,32.29,3.82
90,westport,75,US,1586623182,31,41.14,-73.36,10.56,8.7
91,pisco,20,PE,1586623176,30,-13.7,-76.22,23.33,5.1
92,lianzhou,63,CN,1586623465,75,24.78,112.38,10.97,3.08
93,namibe,4,AO,1586623193,67,-15.2,12.15,25.2,2.69
94,vaini,20,TO,1586623168,100,-21.2,-175.2,18.0,1.5
95,butaritari,78,KI,1586623166,76,3.07,172.79,28.76,5.71
96,banepa,75,NP,1586623465,82,27.63,85.52,16.0,1.0
97,chapais,90,CA,1586623095,63,49.78,-74.85,-1.0,4.1
98,souillac,75,MU,1586623176,88,-20.52,57.52,25.56,7.7
99,boca do acre,70,BR,1586623465,63,-8.75,-67.4,30.71,1.27
100,chuy,24,UY,1586623164,55,-33.7,-53.46,21.37,2.85
101,yellowknife,20,CA,1586623163,60,62.46,-114.35,-12.78,4.1
102,nchelenge,81,ZM,1586623466,60,-9.35,28.73,22.93,2.85
103,kurilsk,93,RU,1586623466,94,45.23,147.88,-3.6,4.71
104,yerofey pavlovich,0,RU,1586623466,75,53.97,121.97,0.14,1.23
105,zyryanka,4,RU,1586623466,93,65.75,150.85,-9.23,2.55
106,fort nelson,75,CA,1586623162,57,58.81,-122.7,-5.0,1.72
107,sao joao da barra,75,BR,1586623466,69,-21.64,-41.05,26.0,2.6
108,along,34,IN,1586623466,47,28.17,94.77,19.31,1.73
109,san juan,69,AR,1586623466,28,-31.54,-68.54,25.9,3.72
110,saint george,1,US,1586623467,62,37.1,-113.58,13.89,2.18
111,elbistan,0,TR,1586623426,36,38.21,37.2,7.54,4.92
112,atar,0,MR,1586623208,9,20.52,-13.05,37.18,5.73
113,kaitangata,87,NZ,1586623001,96,-46.28,169.85,10.0,1.34
114,playas,100,EC,1586623467,81,-2.63,-80.38,25.2,3.49
115,vestmannaeyjar,90,IS,1586623170,93,63.44,-20.27,7.0,2.1
116,maholi,0,IN,1586623467,18,27.67,80.47,29.15,3.07
117,isangel,37,VU,1586623204,61,-19.55,169.27,25.16,3.85
118,nador,90,MA,1586623467,77,35.17,-2.93,17.0,5.7
119,sangar,100,RU,1586623467,98,63.92,127.47,-3.16,1.09
120,wanning,46,CN,1586623166,89,18.8,110.4,23.93,1.66
121,araouane,0,ML,1586623467,8,18.9,-3.53,36.62,2.21
122,codrington,64,AU,1586623468,73,-38.27,141.97,10.76,5.23
123,vaitape,100,PF,1586623203,73,-16.52,-151.75,28.77,4.18
124,maragogi,53,BR,1586623468,61,-9.01,-35.22,30.1,4.83
125,yumen,82,CN,1586623464,21,40.28,97.2,8.3,3.13
126,kudahuvadhoo,5,MV,1586623468,63,2.67,72.89,29.59,1.54
127,staryy nadym,100,RU,1586623468,97,65.61,72.68,-0.01,6.81
128,atuona,97,PF,1586623170,72,-9.8,-139.03,27.93,3.57
129,bilma,99,NE,1586623468,12,18.69,12.92,29.4,2.53
130,arlit,74,NE,1586623180,9,18.74,7.39,33.99,2.76
131,upata,95,VE,1586623469,21,8.01,-62.4,35.71,4.32
132,sukpak,37,RU,1586623469,65,51.67,94.63,1.3,0.66
133,petropavlovsk-kamchatskiy,75,RU,1586623188,74,53.05,158.65,-1.0,2.0
134,wahiawa,90,US,1586623469,88,21.5,-158.02,23.0,1.5
135,half moon bay,90,US,1586623164,87,37.46,-122.43,13.0,1.5
136,micheweni,100,TZ,1586623199,83,-4.97,39.83,27.16,6.58
137,ville-marie,91,CA,1586623469,69,47.33,-79.43,2.8,3.21
138,sainte-rose,75,GP,1586623469,62,16.33,-61.7,30.0,4.6
139,saint-joseph,48,RE,1586623418,69,-21.37,55.62,26.0,6.2
140,east london,100,ZA,1586623390,74,-33.02,27.91,23.36,5.76
141,portland,75,US,1586623162,70,45.52,-122.68,10.56,0.67
142,bengkulu,37,ID,1586622986,79,-3.8,102.27,26.26,1.22
143,quatre cocos,75,MU,1586623201,88,-20.21,57.76,25.56,7.7
144,kapaa,20,US,1586623158,83,22.08,-159.32,24.0,4.6
145,dikson,100,RU,1586623165,92,73.51,80.55,-10.26,2.62
146,lebu,0,CL,1586623163,56,-37.62,-73.65,15.39,7.26
147,opuwo,41,NA,1586623470,36,-18.06,13.84,25.28,2.98
148,severo-kurilsk,57,RU,1586623178,94,50.68,156.12,-2.83,4.89
149,tasiilaq,40,GL,1586623185,90,65.61,-37.64,0.0,10.3
150,barkaker,90,NO,1586623470,100,59.32,10.38,6.11,7.2
151,beira,60,MZ,1586623202,74,-19.84,34.84,23.13,2.5
152,vila franca do campo,20,PT,1586623465,67,37.72,-25.43,17.0,9.3
153,komsomolskiy,90,UZ,1586623222,82,40.43,71.72,13.0,3.1
154,bethel,75,US,1586623468,36,41.37,-73.41,10.56,7.2
155,khatanga,64,RU,1586623171,92,71.97,102.5,-17.49,4.63
156,sitka,1,US,1586623174,69,57.05,-135.33,2.0,0.37
157,leverkusen,5,DE,1586623471,28,51.03,7.0,24.44,2.1
158,victoria,40,HK,1586622959,94,22.29,114.16,21.0,5.1
159,constantine,40,DZ,1586623467,59,36.37,6.61,18.0,2.1
160,palmer,40,US,1586623281,31,42.16,-72.33,10.0,11.3
161,chokurdakh,100,RU,1586623164,97,70.63,147.92,-2.69,6.42
162,kanniyakumari,1,IN,1586623146,70,8.08,77.57,29.23,4.8
163,fortuna,90,US,1586623173,93,40.6,-124.16,11.67,4.85
164,lompoc,75,US,1586623151,82,34.64,-120.46,17.22,5.1
165,port elizabeth,100,ZA,1586623088,52,-33.92,25.57,19.0,1.5
166,nikolskoye,20,RU,1586622923,64,59.7,30.79,4.0,7.0
167,leningradskiy,100,RU,1586623191,84,69.38,178.42,-13.42,1.84
168,ilulissat,75,GL,1586622933,51,69.22,-51.1,3.0,4.6
169,nanortalik,95,GL,1586623472,69,60.14,-45.24,4.06,12.3
170,brae,97,GB,1586623188,81,60.4,-1.35,9.0,9.8
171,port lincoln,59,AU,1586622965,66,-34.73,135.87,13.27,4.18
172,tezu,0,IN,1586623472,30,27.92,96.17,22.65,1.69
173,ghanzi,79,BW,1586623472,41,-21.57,21.78,22.63,2.39
174,saldanha,85,ZA,1586622956,73,-33.01,17.94,21.0,3.6
175,balabac,2,PH,1586623430,81,7.99,117.06,27.09,2.97
176,hobart,40,AU,1586623018,57,-42.88,147.33,11.0,7.2
177,vanavara,21,RU,1586623473,94,60.34,102.28,-2.85,1.7
178,berlevag,95,NO,1586623191,89,70.86,29.09,-3.77,2.96
179,berezovyy,82,RU,1586623473,75,51.67,135.7,2.24,1.19
180,castro,63,BR,1586622912,42,-24.79,-50.01,21.81,1.42
181,havre,17,FR,1586623473,46,49.58,0.33,23.33,3.1
182,black diamond,90,US,1586623473,81,47.31,-122.0,9.44,1.5
183,maraba,75,BR,1586623473,62,-5.37,-49.12,32.0,2.6
184,arraial do cabo,75,BR,1586623162,78,-22.97,-42.03,24.0,3.1
185,zabol,95,AF,1586623473,33,32.25,67.25,15.15,2.79
186,great falls,90,US,1586623474,85,47.5,-111.3,-2.78,11.3
187,pinawa,99,CA,1586623474,76,50.15,-95.88,0.54,5.74
188,proti,23,GR,1586623474,55,40.95,24.0,20.56,1.5
189,dunedin,78,NZ,1586622999,96,-45.87,170.5,10.56,1.34
190,port moresby,40,PG,1586623192,94,-9.44,147.18,26.0,1.5
191,blyznyuky,87,UA,1586623474,61,48.86,36.56,6.35,5.48
192,muroto,100,JP,1586623474,78,33.28,134.15,11.43,5.59
193,northam,58,GB,1586623092,65,51.03,-4.22,19.44,1.79
194,uige,84,AO,1586623474,70,-7.61,15.06,22.05,0.71
195,kaka,81,TM,1586623475,70,37.35,59.61,16.02,2.65
196,pevek,98,RU,1586623166,93,69.7,170.31,-14.73,6.26
197,kruisfontein,100,ZA,1586622960,55,-34.0,24.73,18.03,1.26
198,itoman,75,JP,1586623475,94,26.12,127.67,20.0,6.2
199,saint anthony,1,US,1586623244,32,45.02,-93.22,13.33,1.5
200,talnakh,75,RU,1586623167,97,69.49,88.4,0.0,18.0
201,chara,98,RU,1586623475,60,56.91,118.26,1.0,0.77
202,phultala,6,BD,1586623475,81,22.7,89.52,24.95,3.21
203,port hardy,40,CA,1586623169,81,50.7,-127.42,8.0,3.1
204,washington,75,US,1586623208,43,47.5,-120.5,11.67,3.6
205,ormara,77,PK,1586623294,74,25.21,64.64,25.85,3.96
206,charcas,91,MX,1586623476,12,23.13,-101.12,25.42,6.84
207,nishihara,75,JP,1586623099,93,26.18,127.76,20.0,2.6
208,asau,80,RO,1586622914,24,46.43,26.4,15.0,4.1
209,emerald,43,AU,1586623476,46,-23.53,148.17,22.0,4.1
210,bandarbeyla,2,SO,1586623476,72,9.49,50.81,27.57,5.76
211,tharad,9,IN,1586623476,24,24.4,71.63,31.26,3.82
212,jamkhandi,38,IN,1586623476,29,16.52,75.3,26.51,1.07
213,klyuchi,1,RU,1586623477,62,52.27,79.17,5.22,3.5
214,vanimo,66,PG,1586623477,84,-2.67,141.3,26.42,0.72
215,kalmunai,15,LK,1586623170,77,7.42,81.82,27.77,2.73
216,natal,40,BR,1586623189,70,-5.79,-35.21,32.0,7.2
217,esperance,81,AU,1586623096,68,-33.87,121.9,20.0,6.2
218,qasigiannguit,75,GL,1586623194,51,68.82,-51.19,3.0,4.6
219,lagoa,0,PT,1586623109,70,39.05,-27.98,16.56,4.76
220,mount isa,25,AU,1586623186,24,-20.73,139.5,22.0,3.6
221,tiksi,28,RU,1586623477,94,71.69,128.87,-8.05,7.79
222,viedma,100,AR,1586623477,55,-40.81,-63.0,18.81,8.86
223,teixeira,54,BR,1586623477,46,-7.22,-37.25,28.31,3.47
224,verkhnevilyuysk,97,RU,1586623478,96,63.45,120.32,-0.61,3.87
225,havoysund,100,NO,1586623478,86,71.0,24.66,-2.0,1.0
226,taoudenni,0,ML,1586623478,7,22.68,-3.98,37.94,1.73
227,ilorin,93,NG,1586623188,25,8.5,4.55,33.66,3.44
228,lakes entrance,80,AU,1586623205,73,-37.88,147.98,13.43,9.42
229,manokwari,83,ID,1586623171,70,-0.87,134.08,27.18,0.92
230,jalu,49,LY,1586623478,26,29.03,21.55,19.51,3.94
231,yaqui,5,MX,1586623478,52,27.37,-110.17,18.0,1.5
232,mato verde,38,BR,1586623478,62,-15.4,-42.87,27.91,0.07
233,montefiascone,0,IT,1586623478,33,42.54,12.04,23.33,4.1
234,mongo,94,TD,1586623479,13,12.18,18.69,34.44,4.19
235,marieville,90,CA,1586623479,51,45.43,-73.17,5.0,8.7
236,verkhnyaya inta,57,RU,1586623479,94,65.98,60.31,-9.22,2.17
237,saint-georges,20,GD,1586623181,66,12.06,-61.75,30.0,9.3
238,tucuman,20,AR,1586623479,53,-26.82,-65.22,24.0,2.1
239,constitucion,100,CL,1586622949,60,-35.33,-72.42,17.14,5.71
240,corinto,0,GR,1586623479,37,37.94,22.96,22.22,1.5
241,mahebourg,75,MU,1586623055,88,-20.41,57.7,25.56,7.7
242,victor harbor,75,AU,1586623479,76,-35.57,138.62,12.22,2.1
243,torbay,75,CA,1586623480,52,47.67,-52.73,8.0,11.3
244,lagdo,100,CM,1586623480,28,9.05,13.73,35.0,2.6
245,college,75,US,1586623066,84,64.86,-147.8,-3.0,1.55
246,kirakira,98,SB,1586623183,80,-10.45,161.92,26.97,2.93
247,midland,90,US,1586623480,77,32.0,-102.08,22.22,3.6
248,los llanos de aridane,75,ES,1586623172,68,28.66,-17.92,21.0,5.1
249,kutum,57,SD,1586623167,12,14.2,24.67,25.13,5.46
250,tura,17,IN,1586623190,37,25.52,90.22,23.71,1.42
251,keetmanshoop,0,NA,1586623205,14,-26.58,18.13,33.0,6.7
252,avera,1,US,1586623480,25,33.19,-82.53,21.0,4.1
253,margate,23,GB,1586623112,63,51.38,1.39,21.11,3.1
254,montepuez,75,MZ,1586623133,85,-13.13,39.0,20.54,2.3
255,tombouctou,0,ML,1586623481,7,20.0,-3.0,36.84,3.29
256,toledo,40,ES,1586623481,59,39.83,-4.0,19.0,3.1
257,yulara,63,AU,1586623481,23,-25.24,130.99,17.0,1.5
258,mehamn,92,NO,1586623089,89,71.04,27.85,-5.11,0.76
259,cabo san lucas,40,MX,1586623463,51,22.89,-109.91,24.44,11.8
260,chicama,20,PE,1586623481,78,-7.84,-79.15,23.0,6.2
261,dingle,2,PH,1586623173,73,11.0,122.67,25.22,2.54
262,nuuk,75,GL,1586623481,64,64.18,-51.72,4.0,3.6
263,sorong,4,ID,1586623481,89,-0.88,131.25,24.8,0.28
264,coshocton,75,US,1586623237,46,40.27,-81.86,11.11,4.12
265,kuldur,11,RU,1586623481,75,49.22,131.63,0.5,0.16
266,prince rupert,1,CA,1586623053,45,54.32,-130.32,6.0,3.6
267,chardara,100,KZ,1586623482,64,41.25,67.97,15.14,5.09
268,shingu,100,JP,1586623012,52,33.73,135.98,9.84,1.77
269,nicoya,96,CR,1586622960,41,10.15,-85.45,34.0,6.7
270,san jose,90,US,1586623342,76,37.34,-121.89,13.33,1.5
271,kijang,90,KR,1586623423,87,35.24,129.21,9.0,2.1
272,tarko-sale,100,RU,1586623482,82,64.92,77.78,2.22,1.79
273,thompson,90,CA,1586623071,67,55.74,-97.86,-6.0,3.6
274,sechura,94,PE,1586623482,62,-5.56,-80.82,26.6,3.71
275,clinton,20,US,1586623472,46,42.59,-82.92,12.22,3.1
276,sanming,93,CN,1586623482,80,26.25,117.62,12.71,1.81
277,vardo,98,NO,1586622902,89,70.37,31.11,-1.8,4.67
278,bulaevo,71,KZ,1586623266,56,54.91,70.44,7.51,1.34
279,salinopolis,72,BR,1586623483,82,-0.61,-47.36,28.06,5.23
280,kosh-agach,0,RU,1586623483,45,50.0,88.67,-1.66,0.89
281,porto santo,40,PT,1586623483,72,33.07,-16.34,18.0,6.2
282,charters towers,70,AU,1586623483,68,-20.1,146.27,22.49,0.99
283,qaqortoq,75,GL,1586623004,23,60.72,-46.03,11.0,9.3
284,burnie,35,AU,1586623226,68,-41.07,145.92,11.11,4.92
285,ancud,40,CL,1586623483,58,-41.87,-73.82,12.0,3.6
286,kuusamo,27,FI,1586623483,94,65.97,29.18,0.0,3.1
287,ust-charyshskaya pristan,6,RU,1586623483,80,52.39,83.66,1.58,2.44
288,bambous virieux,75,MU,1586623158,88,-20.34,57.76,25.56,7.7
289,nago,75,JP,1586623483,94,26.59,127.98,20.0,5.1
290,yerbogachen,15,RU,1586623484,94,61.28,108.01,-3.03,3.03
291,solhan,3,TR,1586623484,37,38.96,41.03,4.62,2.73
292,hobyo,0,SO,1586623484,66,5.35,48.53,28.73,6.71
293,urumqi,46,CN,1586623223,43,43.8,87.6,11.0,1.0
294,carballo,75,ES,1586623484,87,43.21,-8.69,16.11,1.5
295,cayenne,75,GF,1586623217,66,4.93,-52.33,30.0,6.7
296,edd,41,ER,1586623178,76,13.93,41.69,27.2,3.99
297,gua musang,83,MY,1586623484,84,4.88,101.96,24.12,0.32
298,birao,49,CF,1586623484,11,10.28,22.79,31.59,2.68
299,pangnirtung,40,CA,1586623484,53,66.15,-65.71,-6.0,1.5
300,obo,77,CF,1586623485,71,5.4,26.49,23.47,1.2
301,istanbul,39,TR,1586623360,58,41.04,28.98,14.0,5.1
302,navahrudak,0,BY,1586623485,65,53.6,25.83,2.29,2.12
303,carnarvon,40,AU,1586623062,100,-24.87,113.63,25.0,8.2
304,amapa,90,BR,1586623107,89,1.0,-52.0,27.38,2.09
305,yar-sale,70,RU,1586623485,95,66.83,70.83,-6.78,5.13
306,lavrentiya,99,RU,1586623216,98,65.58,-171.0,-2.31,4.7
307,nome,40,US,1586623101,92,64.5,-165.41,-6.0,4.6
308,touros,75,BR,1586623013,62,-5.2,-35.46,32.0,6.2
309,el alto,97,PE,1586623485,100,-4.27,-81.21,17.0,6.2
310,ortigueira,71,BR,1586623486,42,-24.21,-50.95,23.68,1.63
311,bodden town,20,KY,1586623486,70,19.28,-81.25,30.0,4.1
312,gwadar,56,PK,1586623486,79,25.12,62.33,25.91,2.85
313,yegros,0,PY,1586623486,22,-26.45,-56.4,27.9,2.34
314,mahon,20,ES,1586623306,48,39.89,4.27,19.0,4.1
315,ngunguru,7,NZ,1586623486,97,-35.62,174.5,13.89,0.45
316,mecca,17,SA,1586623486,38,21.43,39.83,21.15,3.76
317,hamilton,90,US,1586623047,37,39.18,-84.53,14.44,2.1
318,port augusta,40,AU,1586623486,62,-32.5,137.77,15.0,4.6
319,erzin,20,TR,1586623487,63,36.96,36.2,18.0,4.1
320,kismayo,94,SO,1586623487,73,-0.36,42.55,29.18,4.79
321,kieta,84,PG,1586623105,79,-6.22,155.63,26.5,1.63
322,naze,90,JP,1586623487,82,28.37,129.48,19.0,5.1
323,wick,81,GB,1586623487,58,58.43,-3.08,13.0,7.2
324,paamiut,94,GL,1586623124,71,61.99,-49.67,4.59,2.65
325,iqaluit,90,CA,1586623175,79,63.75,-68.51,-5.0,1.12
326,huilong,72,CN,1586623487,83,31.81,121.66,11.67,7.75
327,jutai,68,BR,1586623487,54,-5.18,-68.9,32.73,0.97
328,chandler,75,US,1586623374,39,33.31,-111.84,19.44,5.1
329,dwarka,39,IN,1586623488,72,22.24,68.97,26.96,4.57
330,adre,86,TD,1586623488,12,13.47,22.2,30.84,5.95
331,hastings,9,GB,1586623488,63,50.86,0.57,22.78,3.1
332,namatanai,84,PG,1586623416,75,-3.67,152.43,27.63,1.87
333,ambositra,51,MG,1586623488,64,-20.52,47.25,15.92,1.63
334,puerto carreno,40,CO,1586623189,49,6.19,-67.49,32.0,3.1
335,sisimiut,100,GL,1586623171,81,66.94,-53.67,2.11,2.37
336,rurrenabaque,5,BO,1586623488,30,-14.44,-67.53,31.95,1.43
337,bathsheba,40,BB,1586623207,55,13.22,-59.52,30.0,7.2
338,leh,17,IN,1586622952,17,34.17,77.58,1.85,0.51
339,aniva,9,RU,1586623489,92,46.71,142.53,-8.0,1.0
340,letterkenny,90,IE,1586623489,71,54.95,-7.73,11.0,8.2
341,amahai,0,ID,1586622929,78,-3.33,128.92,26.44,1.88
342,ebbs,20,AT,1586623489,37,47.63,12.22,20.0,3.1
343,mogadishu,40,SO,1586623071,66,2.04,45.34,30.0,6.2
344,luderitz,0,NA,1586623402,44,-26.65,15.16,25.0,4.6
345,salta,75,AR,1586623281,67,-24.79,-65.41,21.0,1.5
346,harper,87,LR,1586623190,74,4.38,-7.72,28.5,2.18
347,la ronge,75,CA,1586623198,66,55.1,-105.28,-9.0,8.2
348,mega,26,ET,1586623489,52,4.05,38.3,18.37,5.0
349,whitianga,5,NZ,1586623489,87,-36.83,175.7,13.33,2.23
350,omboue,100,GA,1586623214,86,-1.57,9.26,25.46,1.43
351,ponta do sol,75,PT,1586623176,68,32.67,-17.1,18.0,3.6
352,davila,89,PH,1586623490,80,18.47,120.58,25.57,0.97
353,gigmoto,19,PH,1586623490,77,13.78,124.39,27.12,2.14
354,santa vitoria do palmar,25,BR,1586623490,55,-33.52,-53.37,21.44,2.8
355,korla,17,CN,1586623180,21,41.76,86.15,14.89,1.64
356,sri aman,91,MY,1586623490,94,1.24,111.46,25.0,2.1
357,waw,79,SS,1586623490,50,7.7,28.0,28.58,1.92
358,itarema,100,BR,1586623490,75,-2.92,-39.92,29.14,3.79
359,kiruna,82,SE,1586623256,63,67.86,20.23,-1.0,4.6
360,olafsvik,37,IS,1586623490,77,64.89,-23.71,3.26,13.7
361,mopti,80,ML,1586623491,16,14.67,-4.0,36.96,3.0
362,ilo,55,PE,1586623491,71,-17.64,-71.34,23.35,4.16
363,prado,60,BR,1586623491,78,-17.34,-39.22,27.74,4.77
364,kailua,90,US,1586623491,78,21.4,-157.74,23.0,2.1
365,katsuura,75,JP,1586623198,87,35.13,140.3,11.0,2.1
366,launceston,90,AU,1586623177,87,-41.45,147.17,7.78,2.1
367,puerto del rosario,40,ES,1586623491,68,28.5,-13.86,23.0,7.2
368,mahina,75,PF,1586623491,88,-17.51,-149.49,25.0,2.1
369,jacksonville beach,1,US,1586623288,56,30.29,-81.39,24.44,3.1
370,kununurra,90,AU,1586623491,88,-15.77,128.73,25.0,1.0
371,muisne,90,EC,1586623492,100,0.6,-80.03,25.0,3.1
372,bergen,75,NO,1586623492,100,60.39,5.33,7.78,7.2
373,ilam,47,NP,1586623492,29,26.92,87.92,16.99,2.94
374,vao,13,NC,1586623200,76,-22.67,167.48,24.31,6.18
375,sao filipe,10,CV,1586623196,69,14.9,-24.5,25.39,5.16
376,buala,100,SB,1586623479,82,-8.14,159.59,27.09,3.35
377,bestobe,56,KZ,1586623492,60,52.5,73.1,8.04,3.79
378,oliveira dos brejinhos,78,BR,1586623492,64,-12.32,-42.9,27.32,1.46
379,abu dhabi,97,AE,1586623257,12,24.47,54.37,37.0,2.6
380,cartagena,40,CO,1586623193,70,10.4,-75.51,31.0,5.1
381,anaco,88,VE,1586623493,21,9.44,-64.47,36.94,4.76
382,kristinehamn,100,SE,1586623493,80,59.31,14.11,9.44,5.1
383,riberalta,46,BO,1586623196,58,-10.98,-66.1,30.0,4.1
384,haines junction,0,CA,1586623203,74,60.75,-137.51,-3.02,0.21
385,husavik,90,IS,1586623473,93,66.04,-17.34,3.0,7.2
386,kahului,20,US,1586622948,83,20.89,-156.47,21.11,3.6
387,sarkand,49,KZ,1586623493,36,45.41,79.92,8.87,1.72
388,beloha,88,MG,1586623055,81,-25.17,45.05,22.82,7.25
389,liaozhong,0,CN,1586623493,27,41.51,122.72,10.0,3.0
390,pacific grove,90,US,1586623170,76,36.62,-121.92,13.33,2.6
391,poum,37,NC,1586623493,72,-20.23,164.02,25.45,4.61
392,jiazi,91,CN,1586623494,76,22.88,116.07,19.12,5.79
393,oruro,0,BO,1586623494,26,-17.98,-67.15,15.0,3.1
394,kloulklubed,0,PW,1586623118,81,7.04,134.26,27.45,4.87
395,verkhoyansk,100,RU,1586623494,94,67.54,133.38,-2.76,3.79
396,gbadolite,96,CD,1586623494,72,4.28,21.02,24.18,0.63
397,vermillion,40,US,1586623494,56,42.78,-96.93,10.0,3.1
398,vila velha,90,BR,1586623066,83,-20.33,-40.29,26.0,5.7
399,san quintin,32,MX,1586623494,64,30.48,-115.95,16.6,6.13
400,barreirinhas,65,BR,1586623494,75,-2.75,-42.83,29.26,3.79
401,vega de alatorre,45,MX,1586623495,77,20.03,-96.63,29.02,3.6
402,jijiga,73,ET,1586623495,37,9.35,42.8,22.74,2.01
403,parabel,20,RU,1586623495,97,58.7,81.48,-0.34,2.86
404,kattivakkam,20,IN,1586623495,74,13.22,80.32,29.44,2.6
405,parkes,0,AU,1586623495,74,-33.13,148.18,9.44,2.95
406,san rafael,39,AR,1586623495,25,-34.62,-68.33,23.34,5.81
407,kisangani,69,CD,1586623419,68,0.52,25.2,25.87,1.09
408,marawi,0,PH,1586623495,70,8.0,124.29,19.19,1.03
409,mandiana,55,GN,1586623495,27,10.63,-8.68,34.64,1.17
410,nouadhibou,0,MR,1586623163,57,20.93,-17.03,24.0,9.3
411,altar,57,MX,1586623495,60,30.7,-111.82,16.11,1.34
412,atasu,93,KZ,1586623397,51,48.68,71.64,5.86,4.68
413,batagay-alyta,100,RU,1586623496,86,67.8,130.41,-7.63,2.72
414,olinda,40,BR,1586622909,70,-8.01,-34.86,31.0,3.6
415,tamiahua,43,MX,1586623496,74,21.27,-97.45,29.55,3.88
416,faya,20,SA,1586623496,77,18.39,42.45,19.0,3.1
417,humaita,24,BR,1586623496,68,-7.51,-63.02,31.06,1.37
418,abu samrah,29,SY,1586623496,65,35.3,37.18,12.97,4.73
419,sorland,100,NO,1586623185,79,67.67,12.69,1.79,3.68
420,poya,34,NC,1586623496,77,-21.35,165.15,22.48,2.67
421,sinnamary,93,GF,1586623496,69,5.38,-52.95,28.01,5.41
422,sandnessjoen,100,NO,1586623496,55,66.02,12.63,4.0,5.1
423,kasongo-lunda,40,CD,1586623496,77,-6.47,16.82,23.57,0.91
424,funtua,100,NG,1586623497,12,11.52,7.31,29.77,3.55
425,udachnyy,90,RU,1586623467,58,66.42,112.4,-1.0,3.0
426,vilyuysk,100,RU,1586623497,95,63.76,121.62,-0.25,4.42
427,galle,6,LK,1586623397,80,6.04,80.22,26.98,2.61
428,novoagansk,95,RU,1586623497,94,61.94,76.66,2.84,4.65
429,xining,0,CN,1586623497,24,36.62,101.77,2.83,0.19
430,baruun-urt,0,MN,1586623497,36,46.68,113.28,3.72,1.92
431,lucapa,80,AO,1586623497,71,-8.42,20.74,21.19,1.25
432,grand-lahou,61,CI,1586623497,80,5.14,-5.02,28.47,3.68
433,marienburg,49,PL,1586623498,30,54.04,19.03,13.89,4.6
434,camacha,40,PT,1586623498,72,33.08,-16.33,18.0,6.2
435,barreiras,59,BR,1586623498,68,-12.15,-44.99,28.24,0.91
436,shumskiy,82,RU,1586623498,86,54.83,99.13,-1.34,0.84
437,rawa mazowiecka,34,PL,1586623498,30,51.76,20.25,13.89,2.6
438,coihaique,40,CL,1586623170,48,-45.58,-72.07,10.0,2.6
439,beaumont,40,US,1586623498,64,30.09,-94.1,24.0,4.6
440,sawakin,4,SD,1586623498,67,19.11,37.33,23.86,6.47
441,ayan,0,RU,1586623498,89,56.45,138.17,-0.23,6.81
442,synya,85,RU,1586623178,95,65.37,58.04,-7.95,1.22
443,qidong,72,CN,1586623499,83,31.81,121.66,11.67,7.75
444,camalu,30,MX,1586623351,65,30.85,-116.07,13.33,4.0
445,flinders,3,AU,1586622937,47,-34.58,150.86,13.33,7.2
446,tautira,75,PF,1586623197,83,-17.73,-149.15,25.0,2.1
447,waslala,40,NI,1586623499,65,13.23,-85.38,25.0,3.01
448,zhengjiatun,0,CN,1586623499,54,43.51,123.51,5.99,2.27
449,sayyan,61,YE,1586623463,32,15.17,44.32,17.43,1.2
450,chumikan,2,RU,1586623499,87,54.72,135.31,1.08,3.42
451,anchorage,1,US,1586623225,57,61.22,-149.9,-1.67,1.5
452,mayo,1,US,1586622996,37,38.89,-76.51,13.89,4.1
453,hualmay,51,PE,1586623186,65,-11.1,-77.61,25.56,4.57
454,jinchang,30,CN,1586623190,26,38.5,102.17,4.48,3.94
455,mwaya,46,TZ,1586623500,68,-9.55,33.95,24.19,0.87
456,podor,32,MR,1586623500,9,16.65,-14.96,45.0,3.97
457,dalvik,90,IS,1586623500,89,65.97,-18.53,3.0,7.2
458,lac du bonnet,96,CA,1586623500,54,50.25,-96.06,0.56,5.36
459,okha,82,RU,1586623500,96,53.57,142.95,-1.75,5.79
460,jauharabad,82,PK,1586623500,31,32.29,72.28,26.81,1.95
461,quelimane,20,MZ,1586623500,69,-17.88,36.89,27.0,2.6
462,porirua,82,NZ,1586623500,82,-41.13,174.85,15.0,8.7
463,sao miguel do araguaia,27,BR,1586623500,64,-13.28,-50.16,29.41,2.19
464,gornopravdinsk,0,RU,1586623500,87,60.05,69.9,2.15,2.91
465,donskoye,75,RU,1586623501,75,45.46,41.97,7.0,5.0
466,batticaloa,10,LK,1586623501,78,7.71,81.69,27.37,2.24
467,daru,86,PG,1586623166,85,-9.08,143.21,26.5,4.64
468,praia da vitoria,20,PT,1586623194,72,38.73,-27.07,18.0,5.26
469,progreso,75,MX,1586623501,46,21.28,-89.67,35.0,6.2
470,celestun,1,MX,1586623501,47,20.87,-90.4,31.36,2.62
471,pimentel,97,PE,1586623501,29,-6.84,-79.93,19.0,6.7
472,norden,98,DE,1586623501,72,53.6,7.2,20.0,3.1
473,cabedelo,40,BR,1586623501,59,-6.98,-34.83,32.0,4.1
474,xiaoweizhai,16,CN,1586623502,61,26.19,107.51,6.51,2.44
475,rawson,3,AR,1586623176,29,-43.3,-65.1,17.67,7.42
476,hammerfest,100,NO,1586623247,86,70.66,23.68,-2.0,1.0
477,kushmurun,100,KZ,1586623502,70,52.45,64.63,7.31,4.38
478,kaohsiung,75,TW,1586623502,69,22.62,120.31,24.0,4.1
479,moree,0,AU,1586623502,71,-29.47,149.85,14.0,6.7
480,caravelas,45,BR,1586622935,78,-17.71,-39.25,27.7,5.51
481,macusani,44,PE,1586623502,16,-14.08,-70.43,10.4,0.73
482,yuksekova,75,TR,1586623502,61,37.57,44.29,10.0,3.1
483,ikalamavony,8,MG,1586623502,63,-21.15,46.58,18.97,3.67
484,tarija,0,BO,1586623502,16,-21.54,-64.73,24.43,0.75
485,oranjemund,6,NA,1586623503,87,-28.55,16.43,16.17,1.8
486,robertsport,65,LR,1586623503,71,6.75,-11.37,28.59,4.06
487,piracuruca,76,BR,1586623503,72,-3.93,-41.71,30.43,1.7
488,tomatlan,48,MX,1586623503,26,19.93,-105.25,33.27,5.55
489,coquimbo,100,CL,1586623208,63,-29.95,-71.34,18.0,5.1
490,tazovskiy,100,RU,1586623503,99,67.47,78.7,2.12,7.82
491,wajima,100,JP,1586623504,54,37.4,136.9,8.61,1.01
492,lityn,51,UA,1586623504,27,49.33,28.08,12.0,7.0
493,hami,99,CN,1586622945,18,42.8,93.45,14.98,0.48
494,fukue,100,JP,1586623473,92,32.69,128.84,13.06,5.56
495,watrous,23,CA,1586623504,83,51.67,-105.47,-5.87,7.52
496,lumphat,47,KH,1586623204,85,13.49,106.98,24.9,0.9
497,aleksandrovka,10,UA,1586623504,27,46.84,32.76,12.22,3.11
498,hofn,81,IS,1586622996,83,64.25,-15.21,5.18,9.06
499,lerwick,75,GB,1586623328,81,60.15,-1.15,9.0,11.8
500,inverness,82,GB,1586623504,58,57.48,-4.22,15.0,11.3
501,barra patuca,41,HN,1586623504,66,15.8,-84.28,29.4,7.36
502,kargat,96,RU,1586623504,97,55.2,80.28,-0.77,3.06
503,shar,19,KZ,1586623505,69,49.59,81.05,1.92,1.82
504,taywarah,100,AF,1586623505,37,33.35,64.42,7.32,1.02
505,carbonia,20,IT,1586623505,40,39.17,8.52,20.0,5.1
506,egvekinot,13,RU,1586623505,75,66.32,-179.17,-13.36,1.35
507,kamareddi,6,IN,1586623505,20,18.32,78.35,27.96,3.33
508,ostrovnoy,73,RU,1586623079,94,68.05,39.51,-8.63,4.92
509,dongkan,48,CN,1586623505,63,34.0,119.83,6.43,5.01
510,mariel,20,CU,1586623505,52,22.99,-82.75,32.0,2.1
511,graaff-reinet,100,ZA,1586623505,38,-32.25,24.53,26.67,0.45
512,gavle,100,SE,1586623505,43,60.67,17.14,8.89,2.68
513,balclutha,91,NZ,1586623506,66,-46.23,169.75,11.63,1.97
514,lorengau,55,PG,1586623051,75,-2.02,147.27,27.62,1.24
515,houma,1,US,1586623498,56,29.6,-90.72,23.33,5.7
516,erenhot,0,CN,1586623479,33,43.65,111.98,5.83,4.12
517,nioro,0,GM,1586623506,17,13.35,-15.75,36.94,5.11
518,apen,95,DE,1586623506,71,53.22,7.8,19.44,3.1
519,tooele,75,US,1586623490,24,40.53,-112.3,15.56,3.6
520,trinidad,4,BO,1586623506,48,-14.83,-64.9,29.0,1.5
521,conde,40,BR,1586623506,59,-7.26,-34.91,32.0,4.1
522,sechenovo,100,RU,1586623506,86,55.22,45.89,1.13,6.42
523,chokwe,77,MZ,1586623507,67,-24.53,32.98,22.8,3.09
524,ratnagiri,43,IN,1586623507,76,16.98,73.3,26.66,2.34
525,shido,75,JP,1586623507,62,34.32,134.17,11.0,1.0
526,talcahuano,36,CL,1586623448,68,-36.72,-73.12,18.0,4.6
527,colares,20,PT,1586623507,72,38.8,-9.45,19.0,8.7
528,salalah,75,OM,1586622969,70,17.02,54.09,29.0,4.1
529,roald,100,NO,1586622935,93,62.58,6.13,7.0,2.1
530,isla vista,1,US,1586623507,72,34.41,-119.86,17.22,3.6
531,atambua,30,ID,1586623187,80,-9.11,124.89,22.71,1.4
532,grindavik,20,IS,1586622936,81,63.84,-22.43,7.0,7.7
533,harnai,44,PK,1586623206,27,30.1,67.94,25.31,0.54
534,puerto montt,40,CL,1586623507,62,-41.47,-72.94,13.0,2.6
535,la crosse,1,US,1586623257,37,43.8,-91.24,14.44,4.1
536,saint-paul,49,RE,1586623508,78,-21.01,55.27,25.0,6.7
537,dargaville,6,NZ,1586623508,90,-35.93,173.88,12.53,2.52
538,itaituba,100,BR,1586623508,79,-4.28,-55.98,26.87,1.52
539,fort-shevchenko,0,KZ,1586623508,65,44.51,50.26,8.79,4.07
540,kargasok,56,RU,1586623176,93,59.06,80.86,0.5,3.11
541,mount gambier,90,AU,1586623173,71,-37.83,140.77,11.0,4.1
542,afyonkarahisar,14,TR,1586623508,38,38.75,30.67,9.01,4.18
543,areosa,92,PT,1586623508,87,41.72,-8.86,18.89,5.7
544,ossora,55,RU,1586623161,93,59.24,163.07,-12.45,1.65
545,henties bay,0,NA,1586623509,67,-22.12,14.28,23.33,3.13
546,khanpur,88,PK,1586623509,24,28.65,70.66,31.38,1.57
547,tambopata,26,PE,1586623509,32,-12.73,-69.18,32.29,1.04
548,phan thiet,44,VN,1586623509,81,10.93,108.1,26.32,2.48
549,gewane,37,ET,1586623509,30,10.17,40.65,32.17,3.27
550,huarmey,71,PE,1586623509,61,-10.07,-78.15,27.13,4.99
551,dzilam gonzalez,13,MX,1586623509,33,21.28,-88.93,35.09,3.02
552,neiafu,20,TO,1586623164,100,-18.65,-173.98,19.0,4.22
553,amazar,2,RU,1586623509,72,53.86,120.88,0.99,0.94
554,rocha,42,UY,1586623509,58,-34.48,-54.33,20.98,2.3
555,envira,86,BR,1586623510,64,-7.3,-70.22,30.1,0.84
556,yamada,12,JP,1586623510,75,39.47,141.95,3.5,2.63
557,beaverlodge,5,CA,1586623386,61,55.22,-119.44,-10.0,3.03
